% program   : RTKLIB ver.2.4.2
% inp file  : ..\Data\algo0670.22o
% inp file  : ..\Data\brdc0670.22n
% inp file  : ..\Data\gfz22002.sp3
% inp file  : ..\Data\gfz22002.clk
% obs start : 2022/03/08 00:00:00.0 GPST (week2200 172800.0s)
% obs end   : 2022/03/08 23:59:30.0 GPST (week2200 259170.0s)
%
% (lat/lon/height=WGS84/ellipsoidal,Q=1:fix,2:float,3:sbas,4:dgps,5:single,6:ppp,ns=# of satellites)
%  GPST                  latitude(deg) longitude(deg)  height(m)   Q  ns   sdn(m)   sde(m)   sdu(m)  sdne(m)  sdeu(m)  sdun(m) age(s)  ratio
2022/03/08 00:00:00.000   45.955798875  -78.071376955   204.5710   6   7   2.0254   1.5442   3.5624  -0.3914  -0.4585   1.0064   0.00    0.0
2022/03/08 00:00:30.000   45.955798860  -78.071376411   205.2238   6   7   1.4316   1.0900   2.5167  -0.2707  -0.3169   0.7086   0.00    0.0
2022/03/08 00:01:00.000   45.955798766  -78.071376263   205.2376   6   7   1.1683   0.8884   2.0524  -0.2160  -0.2526   0.5760   0.00    0.0
2022/03/08 00:01:30.000   45.955798518  -78.071377061   205.1088   6   7   1.0112   0.7679   1.7752  -0.1827  -0.2133   0.4965   0.00    0.0
2022/03/08 00:02:00.000   45.955799510  -78.071375632   204.7465   6   7   0.9039   0.6856   1.5857  -0.1593  -0.1858   0.4419   0.00    0.0
2022/03/08 00:02:30.000   45.955799230  -78.071375585   204.7224   6   7   0.8247   0.6247   1.4456  -0.1417  -0.1649   0.4015   0.00    0.0
2022/03/08 00:03:00.000   45.955799157  -78.071375640   204.7239   6   7   0.7630   0.5773   1.3366  -0.1276  -0.1481   0.3699   0.00    0.0
2022/03/08 00:03:30.000   45.955798581  -78.071376135   204.8541   6   7   0.7133   0.5390   1.2485  -0.1159  -0.1342   0.3443   0.00    0.0
2022/03/08 00:04:00.000   45.955798395  -78.071376436   204.8704   6   7   0.6721   0.5072   1.1755  -0.1060  -0.1223   0.3230   0.00    0.0
2022/03/08 00:04:30.000   45.955798080  -78.071376223   204.9073   6   7   0.6372   0.4803   1.1136  -0.0973  -0.1119   0.3049   0.00    0.0
2022/03/08 00:05:00.000   45.955797842  -78.071376350   204.9655   6   7   0.6072   0.4571   1.0603  -0.0897  -0.1026   0.2892   0.00    0.0
2022/03/08 00:05:30.000   45.955797679  -78.071376435   204.9630   6   7   0.5810   0.4368   1.0138  -0.0827  -0.0941   0.2755   0.00    0.0
2022/03/08 00:06:00.000   45.955797684  -78.071376533   204.9783   6   7   0.5579   0.4189   0.9726  -0.0764  -0.0863   0.2633   0.00    0.0
2022/03/08 00:06:30.000   45.955797597  -78.071376681   204.9721   6   7   0.5373   0.4029   0.9359  -0.0706  -0.0790   0.2524   0.00    0.0
2022/03/08 00:07:00.000   45.955797647  -78.071376685   204.9271   6   7   0.5188   0.3886   0.9029  -0.0651  -0.0721   0.2425   0.00    0.0
2022/03/08 00:07:30.000   45.955797391  -78.071377097   205.0025   6   7   0.5020   0.3755   0.8729  -0.0599  -0.0655   0.2336   0.00    0.0
2022/03/08 00:08:00.000   45.955797665  -78.071376815   204.9787   6   7   0.4867   0.3637   0.8457  -0.0549  -0.0590   0.2254   0.00    0.0
2022/03/08 00:08:30.000   45.955797386  -78.071376933   205.0025   6   7   0.4727   0.3528   0.8206  -0.0501  -0.0526   0.2179   0.00    0.0
2022/03/08 00:09:00.000   45.955797398  -78.071377048   205.0024   6   7   0.4599   0.3427   0.7976  -0.0455  -0.0461   0.2109   0.00    0.0
2022/03/08 00:09:30.000   45.955797408  -78.071377087   205.0074   6   7   0.4480   0.3335   0.7763  -0.0408  -0.0394   0.2044   0.00    0.0
2022/03/08 00:10:00.000   45.955797293  -78.071377086   205.0290   6   7   0.4369   0.3248   0.7564  -0.0361  -0.0321   0.1984   0.00    0.0
2022/03/08 00:10:30.000   45.955797259  -78.071376890   204.9952   6   7   0.4266   0.3168   0.7379  -0.0313  -0.0236   0.1927   0.00    0.0
2022/03/08 00:11:00.000   45.955797200  -78.071376941   205.0306   6   7   0.4170   0.3093   0.7207  -0.0261  -0.0114   0.1874   0.00    0.0
2022/03/08 00:11:30.000   45.955797096  -78.071377067   205.0465   6   7   0.4080   0.3022   0.7044  -0.0203   0.0162   0.1824   0.00    0.0
2022/03/08 00:12:00.000   45.955797055  -78.071377298   205.0728   6   7   0.3995   0.2956   0.6892  -0.0129   0.0250   0.1777   0.00    0.0
2022/03/08 00:12:30.000   45.955797359  -78.071377039   205.0865   6   8   0.3897   0.2892   0.6721  -0.0167   0.0206   0.1667   0.00    0.0
2022/03/08 00:13:00.000   45.955797445  -78.071377042   205.1501   6   8   0.3806   0.2832   0.6563  -0.0189   0.0168   0.1565   0.00    0.0
2022/03/08 00:13:30.000   45.955797515  -78.071377082   205.2037   6   8   0.3721   0.2775   0.6415  -0.0203   0.0137   0.1470   0.00    0.0
2022/03/08 00:14:00.000   45.955797478  -78.071377310   205.2927   6   8   0.3641   0.2720   0.6275  -0.0211   0.0114   0.1382   0.00    0.0
2022/03/08 00:14:30.000   45.955797523  -78.071377320   205.3619   6   8   0.3566   0.2669   0.6145  -0.0215   0.0101   0.1299   0.00    0.0
2022/03/08 00:15:00.000   45.955797691  -78.071377318   205.3821   6   8   0.3495   0.2620   0.6021  -0.0217   0.0099   0.1222   0.00    0.0
2022/03/08 00:15:30.000   45.955797721  -78.071377349   205.4301   6   8   0.3428   0.2573   0.5905  -0.0216   0.0106   0.1148   0.00    0.0
2022/03/08 00:16:00.000   45.955797598  -78.071377415   205.5010   6   8   0.3365   0.2529   0.5794  -0.0214   0.0118   0.1078   0.00    0.0
2022/03/08 00:16:30.000   45.955797681  -78.071377411   205.5354   6   8   0.3305   0.2486   0.5689  -0.0210   0.0134   0.1011   0.00    0.0
2022/03/08 00:17:00.000   45.955797657  -78.071377315   205.5553   6   8   0.3248   0.2445   0.5589  -0.0205   0.0152   0.0947   0.00    0.0
2022/03/08 00:17:30.000   45.955797648  -78.071377297   205.5877   6   8   0.3193   0.2406   0.5494  -0.0199   0.0170   0.0885   0.00    0.0
2022/03/08 00:18:00.000   45.955797643  -78.071377238   205.6159   6   8   0.3141   0.2369   0.5403  -0.0192   0.0187   0.0824   0.00    0.0
2022/03/08 00:18:30.000   45.955797603  -78.071377216   205.6513   6   8   0.3092   0.2333   0.5316  -0.0185   0.0204   0.0766   0.00    0.0
2022/03/08 00:19:00.000   45.955797515  -78.071377128   205.6968   6   8   0.3044   0.2298   0.5233  -0.0177   0.0221   0.0708   0.00    0.0
2022/03/08 00:19:30.000   45.955797428  -78.071377123   205.7395   6   8   0.2999   0.2264   0.5154  -0.0168   0.0237   0.0651   0.00    0.0
2022/03/08 00:20:00.000   45.955797386  -78.071377272   205.7835   6   8   0.2955   0.2232   0.5077  -0.0159   0.0252   0.0594   0.00    0.0
2022/03/08 00:20:30.000   45.955797395  -78.071377265   205.8046   6   8   0.2913   0.2201   0.5004  -0.0149   0.0266   0.0537   0.00    0.0
2022/03/08 00:21:00.000   45.955797434  -78.071377274   205.8422   6   8   0.2873   0.2171   0.4933  -0.0138   0.0280   0.0478   0.00    0.0
2022/03/08 00:21:30.000   45.955797398  -78.071377279   205.8730   6   8   0.2834   0.2142   0.4865  -0.0127   0.0294   0.0417   0.00    0.0
2022/03/08 00:22:00.000   45.955797408  -78.071377261   205.8574   6   7   0.2807   0.2116   0.4823   0.0093   0.0227   0.0087   0.00    0.0
2022/03/08 00:22:30.000   45.955797521  -78.071377246   205.8633   6   7   0.2781   0.2091   0.4783   0.0179   0.0138  -0.0386   0.00    0.0
2022/03/08 00:23:00.000   45.955797611  -78.071377293   205.8568   6   7   0.2756   0.2066   0.4744   0.0233  -0.0105  -0.0545   0.00    0.0
2022/03/08 00:23:30.000   45.955797722  -78.071377295   205.8640   6   7   0.2732   0.2042   0.4707   0.0274  -0.0197  -0.0662   0.00    0.0
2022/03/08 00:24:00.000   45.955797820  -78.071377281   205.8699   6   7   0.2709   0.2019   0.4671   0.0308  -0.0254  -0.0756   0.00    0.0
2022/03/08 00:24:30.000   45.955797879  -78.071377256   205.8729   6   7   0.2687   0.1997   0.4636   0.0337  -0.0298  -0.0835   0.00    0.0
2022/03/08 00:25:00.000   45.955797943  -78.071377219   205.8681   6   7   0.2665   0.1975   0.4603   0.0362  -0.0333  -0.0904   0.00    0.0
2022/03/08 00:25:30.000   45.955797988  -78.071377191   205.8612   6   7   0.2645   0.1954   0.4571   0.0385  -0.0363  -0.0965   0.00    0.0
2022/03/08 00:26:00.000   45.955797992  -78.071377147   205.8578   6   7   0.2625   0.1933   0.4540   0.0405  -0.0388  -0.1020   0.00    0.0
2022/03/08 00:26:30.000   45.955798088  -78.071377118   205.8646   6   7   0.2606   0.1913   0.4510   0.0423  -0.0410  -0.1069   0.00    0.0
2022/03/08 00:27:00.000   45.955798188  -78.071377074   205.8638   6   7   0.2587   0.1893   0.4481   0.0439  -0.0430  -0.1114   0.00    0.0
2022/03/08 00:27:30.000   45.955798328  -78.071377093   205.8696   6   7   0.2569   0.1874   0.4452   0.0454  -0.0447  -0.1156   0.00    0.0
2022/03/08 00:28:00.000   45.955798440  -78.071377012   205.8722   6   7   0.2552   0.1855   0.4425   0.0468  -0.0462  -0.1194   0.00    0.0
2022/03/08 00:28:30.000   45.955798529  -78.071376963   205.8741   6   7   0.2535   0.1837   0.4398   0.0480  -0.0476  -0.1229   0.00    0.0
2022/03/08 00:29:00.000   45.955798582  -78.071376969   205.8710   6   7   0.2518   0.1819   0.4373   0.0492  -0.0488  -0.1262   0.00    0.0
2022/03/08 00:29:30.000   45.955798669  -78.071376927   205.8684   6   7   0.2502   0.1802   0.4348   0.0503  -0.0499  -0.1293   0.00    0.0
2022/03/08 00:30:00.000   45.955798735  -78.071376912   205.8759   6   7   0.2487   0.1785   0.4323   0.0512  -0.0509  -0.1322   0.00    0.0
2022/03/08 00:30:30.000   45.955798788  -78.071376921   205.8770   6   7   0.2472   0.1768   0.4300   0.0521  -0.0517  -0.1349   0.00    0.0
2022/03/08 00:31:00.000   45.955798816  -78.071376907   205.8708   6   7   0.2457   0.1752   0.4276   0.0529  -0.0525  -0.1374   0.00    0.0
2022/03/08 00:31:30.000   45.955798873  -78.071376892   205.8730   6   7   0.2443   0.1736   0.4254   0.0537  -0.0532  -0.1398   0.00    0.0
2022/03/08 00:32:00.000   45.955798943  -78.071376849   205.8781   6   7   0.2429   0.1721   0.4232   0.0544  -0.0538  -0.1420   0.00    0.0
2022/03/08 00:32:30.000   45.955799001  -78.071376821   205.8819   6   7   0.2416   0.1705   0.4211   0.0551  -0.0543  -0.1441   0.00    0.0
2022/03/08 00:33:00.000   45.955799004  -78.071376777   205.8780   6   7   0.2402   0.1690   0.4190   0.0556  -0.0548  -0.1461   0.00    0.0
2022/03/08 00:33:30.000   45.955799078  -78.071376713   205.8881   6   7   0.2389   0.1676   0.4170   0.0562  -0.0552  -0.1480   0.00    0.0
2022/03/08 00:34:00.000   45.955799165  -78.071376671   205.8936   6   7   0.2377   0.1661   0.4150   0.0567  -0.0556  -0.1498   0.00    0.0
2022/03/08 00:34:30.000   45.955799244  -78.071376650   205.9053   6   7   0.2365   0.1647   0.4131   0.0572  -0.0559  -0.1515   0.00    0.0
2022/03/08 00:35:00.000   45.955799295  -78.071376671   205.9060   6   7   0.2353   0.1633   0.4112   0.0576  -0.0561  -0.1531   0.00    0.0
2022/03/08 00:35:30.000   45.955799371  -78.071376669   205.9153   6   7   0.2341   0.1620   0.4093   0.0579  -0.0563  -0.1546   0.00    0.0
2022/03/08 00:36:00.000   45.955799434  -78.071376583   205.9215   6   7   0.2329   0.1607   0.4075   0.0583  -0.0565  -0.1561   0.00    0.0
2022/03/08 00:36:30.000   45.955799352  -78.071376545   205.9559   6   8   0.2312   0.1593   0.4045   0.0592  -0.0578  -0.1558   0.00    0.0
2022/03/08 00:37:00.000   45.955799259  -78.071376432   205.9857   6   8   0.2295   0.1579   0.4015   0.0601  -0.0590  -0.1555   0.00    0.0
2022/03/08 00:37:30.000   45.955799194  -78.071376369   206.0190   6   8   0.2279   0.1566   0.3986   0.0609  -0.0601  -0.1552   0.00    0.0
2022/03/08 00:38:00.000   45.955799131  -78.071376337   206.0506   6   8   0.2263   0.1553   0.3958   0.0616  -0.0611  -0.1549   0.00    0.0
2022/03/08 00:38:30.000   45.955799067  -78.071376252   206.0843   6   8   0.2247   0.1541   0.3930   0.0623  -0.0619  -0.1546   0.00    0.0
2022/03/08 00:39:00.000   45.955799018  -78.071376201   206.1298   6   8   0.2231   0.1528   0.3903   0.0629  -0.0627  -0.1542   0.00    0.0
2022/03/08 00:39:30.000   45.955798897  -78.071376182   206.1679   6   8   0.2216   0.1516   0.3877   0.0634  -0.0634  -0.1539   0.00    0.0
2022/03/08 00:40:00.000   45.955798813  -78.071376236   206.2230   6   9   0.2200   0.1502   0.3840   0.0637  -0.0620  -0.1533   0.00    0.0
2022/03/08 00:40:30.000   45.955798731  -78.071376340   206.2955   6   9   0.2185   0.1488   0.3804   0.0639  -0.0607  -0.1526   0.00    0.0
2022/03/08 00:41:00.000   45.955798688  -78.071376399   206.3580   6   9   0.2170   0.1474   0.3769   0.0640  -0.0594  -0.1520   0.00    0.0
2022/03/08 00:41:30.000   45.955798620  -78.071376450   206.4086   6   9   0.2155   0.1461   0.3735   0.0642  -0.0581  -0.1513   0.00    0.0
2022/03/08 00:42:00.000   45.955798522  -78.071376495   206.4668   6   9   0.2141   0.1448   0.3702   0.0642  -0.0569  -0.1506   0.00    0.0
2022/03/08 00:42:30.000   45.955798383  -78.071376539   206.5332   6   9   0.2126   0.1435   0.3669   0.0643  -0.0556  -0.1500   0.00    0.0
2022/03/08 00:43:00.000   45.955798322  -78.071376549   206.5780   6   9   0.2112   0.1422   0.3638   0.0643  -0.0543  -0.1493   0.00    0.0
2022/03/08 00:43:30.000   45.955798305  -78.071376547   206.6141   6   9   0.2098   0.1410   0.3607   0.0643  -0.0530  -0.1486   0.00    0.0
2022/03/08 00:44:00.000   45.955798193  -78.071376556   206.6581   6   9   0.2084   0.1398   0.3577   0.0643  -0.0517  -0.1479   0.00    0.0
2022/03/08 00:44:30.000   45.955798102  -78.071376617   206.6962   6   8   0.2072   0.1386   0.3549   0.0643  -0.0504  -0.1469   0.00    0.0
2022/03/08 00:45:00.000   45.955798022  -78.071376620   206.7165   6   8   0.2061   0.1374   0.3523   0.0642  -0.0491  -0.1459   0.00    0.0
2022/03/08 00:45:30.000   45.955797968  -78.071376655   206.7509   6   8   0.2049   0.1363   0.3497   0.0641  -0.0477  -0.1449   0.00    0.0
2022/03/08 00:46:00.000   45.955797930  -78.071376666   206.7719   6   8   0.2037   0.1352   0.3471   0.0640  -0.0463  -0.1440   0.00    0.0
2022/03/08 00:46:30.000   45.955797835  -78.071376731   206.8049   6   8   0.2026   0.1341   0.3446   0.0639  -0.0449  -0.1430   0.00    0.0
2022/03/08 00:47:00.000   45.955797738  -78.071376746   206.8374   6   8   0.2014   0.1330   0.3421   0.0638  -0.0435  -0.1421   0.00    0.0
2022/03/08 00:47:30.000   45.955797677  -78.071376812   206.8557   6   8   0.2003   0.1319   0.3397   0.0636  -0.0421  -0.1412   0.00    0.0
2022/03/08 00:48:00.000   45.955797634  -78.071376812   206.8713   6   8   0.1991   0.1309   0.3373   0.0635  -0.0407  -0.1403   0.00    0.0
2022/03/08 00:48:30.000   45.955797556  -78.071376842   206.9024   6   8   0.1980   0.1298   0.3350   0.0633  -0.0392  -0.1394   0.00    0.0
2022/03/08 00:49:00.000   45.955797503  -78.071376881   206.9269   6   8   0.1969   0.1288   0.3327   0.0631  -0.0377  -0.1385   0.00    0.0
2022/03/08 00:49:30.000   45.955797443  -78.071376881   206.9511   6   8   0.1958   0.1278   0.3304   0.0629  -0.0362  -0.1376   0.00    0.0
2022/03/08 00:50:00.000   45.955797394  -78.071376885   206.9659   6   8   0.1947   0.1268   0.3282   0.0626  -0.0346  -0.1367   0.00    0.0
2022/03/08 00:50:30.000   45.955797346  -78.071376886   206.9786   6   8   0.1936   0.1259   0.3260   0.0624  -0.0330  -0.1359   0.00    0.0
2022/03/08 00:51:00.000   45.955797264  -78.071376882   206.9933   6   8   0.1925   0.1249   0.3239   0.0622  -0.0314  -0.1350   0.00    0.0
2022/03/08 00:51:30.000   45.955797200  -78.071376901   207.0143   6   8   0.1914   0.1240   0.3218   0.0619  -0.0297  -0.1342   0.00    0.0
2022/03/08 00:52:00.000   45.955797124  -78.071376885   207.0303   6   8   0.1903   0.1231   0.3197   0.0616  -0.0279  -0.1333   0.00    0.0
2022/03/08 00:52:30.000   45.955797097  -78.071376894   207.0422   6   8   0.1892   0.1221   0.3177   0.0613  -0.0260  -0.1325   0.00    0.0
2022/03/08 00:53:00.000   45.955797073  -78.071376893   207.0472   6   8   0.1881   0.1213   0.3157   0.0610  -0.0241  -0.1317   0.00    0.0
2022/03/08 00:53:30.000   45.955797097  -78.071376927   207.0542   6   8   0.1871   0.1204   0.3137   0.0607  -0.0220  -0.1309   0.00    0.0
2022/03/08 00:54:00.000   45.955797091  -78.071376945   207.0705   6   8   0.1860   0.1195   0.3118   0.0604  -0.0197  -0.1301   0.00    0.0
2022/03/08 00:54:30.000   45.955797122  -78.071376910   207.0791   6   8   0.1850   0.1187   0.3098   0.0601  -0.0172  -0.1293   0.00    0.0
2022/03/08 00:55:00.000   45.955797142  -78.071376908   207.0886   6   8   0.1839   0.1178   0.3080   0.0598  -0.0142  -0.1285   0.00    0.0
2022/03/08 00:55:30.000   45.955797156  -78.071376967   207.1004   6   8   0.1829   0.1170   0.3061   0.0594  -0.0106  -0.1278   0.00    0.0
2022/03/08 00:56:00.000   45.955797121  -78.071376967   207.1130   6   8   0.1818   0.1162   0.3043   0.0591  -0.0050  -0.1270   0.00    0.0
2022/03/08 00:56:30.000   45.955797102  -78.071376909   207.1206   6   8   0.1808   0.1154   0.3025   0.0587   0.0079  -0.1262   0.00    0.0
2022/03/08 00:57:00.000   45.955797085  -78.071376898   207.1214   6   8   0.1798   0.1146   0.3007   0.0583   0.0121  -0.1255   0.00    0.0
2022/03/08 00:57:30.000   45.955797049  -78.071376940   207.1283   6   8   0.1788   0.1138   0.2989   0.0580   0.0152  -0.1248   0.00    0.0
2022/03/08 00:58:00.000   45.955797061  -78.071376926   207.1308   6   8   0.1777   0.1130   0.2972   0.0576   0.0177  -0.1240   0.00    0.0
2022/03/08 00:58:30.000   45.955797028  -78.071376944   207.1452   6   8   0.1767   0.1122   0.2955   0.0572   0.0198  -0.1233   0.00    0.0
2022/03/08 00:59:00.000   45.955797013  -78.071376939   207.1510   6   8   0.1757   0.1115   0.2938   0.0568   0.0218  -0.1226   0.00    0.0
2022/03/08 00:59:30.000   45.955796993  -78.071376971   207.1608   6   8   0.1747   0.1107   0.2921   0.0564   0.0236  -0.1218   0.00    0.0
2022/03/08 01:00:00.000   45.955797000  -78.071377041   207.1662   6   8   0.1737   0.1100   0.2904   0.0560   0.0253  -0.1211   0.00    0.0
2022/03/08 01:00:30.000   45.955797013  -78.071377057   207.1652   6   8   0.1728   0.1093   0.2888   0.0556   0.0268  -0.1204   0.00    0.0
2022/03/08 01:01:00.000   45.955797019  -78.071377086   207.1749   6   8   0.1718   0.1086   0.2871   0.0552   0.0282  -0.1197   0.00    0.0
2022/03/08 01:01:30.000   45.955797013  -78.071377087   207.1798   6   8   0.1708   0.1079   0.2855   0.0547   0.0294  -0.1190   0.00    0.0
2022/03/08 01:02:00.000   45.955797003  -78.071377085   207.1903   6   8   0.1698   0.1072   0.2840   0.0543   0.0306  -0.1183   0.00    0.0
2022/03/08 01:02:30.000   45.955797022  -78.071377094   207.1963   6   8   0.1689   0.1065   0.2824   0.0539   0.0318  -0.1176   0.00    0.0
2022/03/08 01:03:00.000   45.955797001  -78.071377073   207.2095   6   8   0.1679   0.1058   0.2809   0.0535   0.0328  -0.1169   0.00    0.0
2022/03/08 01:03:30.000   45.955797042  -78.071377078   207.2168   6   8   0.1670   0.1051   0.2794   0.0530   0.0338  -0.1163   0.00    0.0
2022/03/08 01:04:00.000   45.955797050  -78.071377017   207.2181   6   8   0.1660   0.1045   0.2779   0.0526   0.0348  -0.1156   0.00    0.0
2022/03/08 01:04:30.000   45.955797065  -78.071376945   207.2167   6   8   0.1651   0.1038   0.2764   0.0521   0.0357  -0.1149   0.00    0.0
2022/03/08 01:05:00.000   45.955797092  -78.071376909   207.2151   6   8   0.1641   0.1032   0.2749   0.0517   0.0365  -0.1143   0.00    0.0
2022/03/08 01:05:30.000   45.955797157  -78.071376904   207.2084   6   8   0.1632   0.1026   0.2735   0.0513   0.0374  -0.1137   0.00    0.0
2022/03/08 01:06:00.000   45.955797217  -78.071376890   207.2134   6   8   0.1623   0.1019   0.2721   0.0508   0.0381  -0.1130   0.00    0.0
2022/03/08 01:06:30.000   45.955797224  -78.071376906   207.2218   6   8   0.1614   0.1013   0.2707   0.0504   0.0389  -0.1124   0.00    0.0
2022/03/08 01:07:00.000   45.955797305  -78.071376913   207.2326   6   8   0.1605   0.1007   0.2693   0.0499   0.0396  -0.1118   0.00    0.0
2022/03/08 01:07:30.000   45.955797340  -78.071376936   207.2388   6   8   0.1596   0.1001   0.2679   0.0495   0.0403  -0.1112   0.00    0.0
2022/03/08 01:08:00.000   45.955797362  -78.071376895   207.2392   6   8   0.1587   0.0995   0.2665   0.0490   0.0409  -0.1106   0.00    0.0
2022/03/08 01:08:30.000   45.955797410  -78.071376845   207.2399   6   8   0.1578   0.0989   0.2652   0.0485   0.0416  -0.1099   0.00    0.0
2022/03/08 01:09:00.000   45.955797473  -78.071376808   207.2409   6   8   0.1569   0.0984   0.2638   0.0481   0.0422  -0.1094   0.00    0.0
2022/03/08 01:09:30.000   45.955797477  -78.071376785   207.2423   6   8   0.1560   0.0978   0.2625   0.0476   0.0428  -0.1088   0.00    0.0
2022/03/08 01:10:00.000   45.955797513  -78.071376765   207.2409   6   8   0.1551   0.0972   0.2612   0.0472   0.0433  -0.1082   0.00    0.0
2022/03/08 01:10:30.000   45.955797560  -78.071376732   207.2416   6   8   0.1543   0.0967   0.2599   0.0467   0.0439  -0.1076   0.00    0.0
2022/03/08 01:11:00.000   45.955797593  -78.071376704   207.2424   6   8   0.1534   0.0961   0.2586   0.0462   0.0444  -0.1070   0.00    0.0
2022/03/08 01:11:30.000   45.955797593  -78.071376667   207.2500   6   8   0.1525   0.0956   0.2574   0.0458   0.0449  -0.1065   0.00    0.0
2022/03/08 01:12:00.000   45.955797676  -78.071376663   207.2601   6   8   0.1517   0.0951   0.2561   0.0453   0.0454  -0.1059   0.00    0.0
2022/03/08 01:12:30.000   45.955797710  -78.071376641   207.2672   6   8   0.1509   0.0945   0.2549   0.0448   0.0458  -0.1054   0.00    0.0
2022/03/08 01:13:00.000   45.955797764  -78.071376594   207.2665   6   8   0.1500   0.0940   0.2536   0.0444   0.0463  -0.1048   0.00    0.0
2022/03/08 01:13:30.000   45.955797810  -78.071376555   207.2700   6   8   0.1492   0.0935   0.2524   0.0439   0.0467  -0.1043   0.00    0.0
2022/03/08 01:14:00.000   45.955797874  -78.071376491   207.2722   6   9   0.1483   0.0930   0.2511   0.0433   0.0470  -0.1039   0.00    0.0
2022/03/08 01:14:30.000   45.955797932  -78.071376444   207.2727   6   9   0.1474   0.0924   0.2499   0.0427   0.0473  -0.1034   0.00    0.0
2022/03/08 01:15:00.000   45.955797987  -78.071376435   207.2822   6   9   0.1465   0.0919   0.2486   0.0422   0.0475  -0.1030   0.00    0.0
2022/03/08 01:15:30.000   45.955798057  -78.071376426   207.2862   6   9   0.1457   0.0914   0.2473   0.0416   0.0478  -0.1026   0.00    0.0
2022/03/08 01:16:00.000   45.955798118  -78.071376407   207.2918   6   9   0.1448   0.0909   0.2461   0.0410   0.0480  -0.1022   0.00    0.0
2022/03/08 01:16:30.000   45.955798178  -78.071376363   207.2969   6   9   0.1440   0.0904   0.2449   0.0404   0.0482  -0.1018   0.00    0.0
2022/03/08 01:17:00.000   45.955798160  -78.071376339   207.3053   6   9   0.1431   0.0899   0.2436   0.0398   0.0485  -0.1014   0.00    0.0
2022/03/08 01:17:30.000   45.955798166  -78.071376298   207.3084   6   9   0.1423   0.0894   0.2424   0.0393   0.0487  -0.1010   0.00    0.0
2022/03/08 01:18:00.000   45.955798238  -78.071376260   207.3067   6   9   0.1415   0.0889   0.2412   0.0387   0.0489  -0.1006   0.00    0.0
2022/03/08 01:18:30.000   45.955798292  -78.071376213   207.3076   6   9   0.1407   0.0884   0.2401   0.0381   0.0491  -0.1003   0.00    0.0
2022/03/08 01:19:00.000   45.955798395  -78.071376157   207.3060   6   9   0.1398   0.0880   0.2389   0.0375   0.0493  -0.0999   0.00    0.0
2022/03/08 01:19:30.000   45.955798451  -78.071376105   207.3047   6   9   0.1390   0.0875   0.2377   0.0369   0.0495  -0.0995   0.00    0.0
2022/03/08 01:20:00.000   45.955798531  -78.071376087   207.3006   6   9   0.1382   0.0870   0.2365   0.0363   0.0497  -0.0991   0.00    0.0
2022/03/08 01:20:30.000   45.955798653  -78.071376061   207.3026   6   9   0.1374   0.0866   0.2354   0.0358   0.0499  -0.0987   0.00    0.0
2022/03/08 01:21:00.000   45.955798749  -78.071376032   207.2997   6   9   0.1366   0.0861   0.2342   0.0352   0.0500  -0.0983   0.00    0.0
2022/03/08 01:21:30.000   45.955798840  -78.071375982   207.3039   6   9   0.1359   0.0857   0.2331   0.0346   0.0502  -0.0980   0.00    0.0
2022/03/08 01:22:00.000   45.955798921  -78.071375955   207.3011   6   9   0.1351   0.0852   0.2320   0.0340   0.0504  -0.0976   0.00    0.0
2022/03/08 01:22:30.000   45.955799032  -78.071375921   207.3024   6   9   0.1343   0.0848   0.2308   0.0334   0.0505  -0.0972   0.00    0.0
2022/03/08 01:23:00.000   45.955799067  -78.071375897   207.3123   6   9   0.1336   0.0844   0.2297   0.0328   0.0507  -0.0969   0.00    0.0
2022/03/08 01:23:30.000   45.955799168  -78.071375874   207.3116   6   9   0.1328   0.0840   0.2286   0.0322   0.0508  -0.0965   0.00    0.0
2022/03/08 01:24:00.000   45.955799260  -78.071375861   207.3157   6   9   0.1321   0.0835   0.2275   0.0316   0.0510  -0.0961   0.00    0.0
2022/03/08 01:24:30.000   45.955799363  -78.071375802   207.3062   6   9   0.1313   0.0831   0.2264   0.0310   0.0511  -0.0958   0.00    0.0
2022/03/08 01:25:00.000   45.955799463  -78.071375780   207.3058   6   9   0.1306   0.0827   0.2253   0.0304   0.0513  -0.0954   0.00    0.0
2022/03/08 01:25:30.000   45.955799548  -78.071375774   207.3032   6   9   0.1299   0.0823   0.2243   0.0298   0.0514  -0.0950   0.00    0.0
2022/03/08 01:26:00.000   45.955799576  -78.071375767   207.3086   6   9   0.1292   0.0819   0.2232   0.0292   0.0515  -0.0947   0.00    0.0
2022/03/08 01:26:30.000   45.955799653  -78.071375763   207.3103   6   9   0.1284   0.0815   0.2221   0.0286   0.0516  -0.0943   0.00    0.0
2022/03/08 01:27:00.000   45.955799724  -78.071375786   207.3152   6   9   0.1277   0.0811   0.2211   0.0279   0.0517  -0.0940   0.00    0.0
2022/03/08 01:27:30.000   45.955799755  -78.071375798   207.3181   6   9   0.1270   0.0807   0.2200   0.0273   0.0518  -0.0936   0.00    0.0
2022/03/08 01:28:00.000   45.955799796  -78.071375825   207.3231   6   9   0.1263   0.0803   0.2190   0.0267   0.0519  -0.0932   0.00    0.0
2022/03/08 01:28:30.000   45.955799847  -78.071375865   207.3247   6   9   0.1256   0.0799   0.2180   0.0261   0.0520  -0.0929   0.00    0.0
2022/03/08 01:29:00.000   45.955799910  -78.071375839   207.3223   6   9   0.1250   0.0796   0.2169   0.0254   0.0521  -0.0925   0.00    0.0
2022/03/08 01:29:30.000   45.955799967  -78.071375826   207.3215   6   9   0.1243   0.0792   0.2159   0.0248   0.0522  -0.0922   0.00    0.0
2022/03/08 01:30:00.000   45.955799990  -78.071375785   207.3048   6   8   0.1236   0.0788   0.2151   0.0241   0.0522  -0.0918   0.00    0.0
2022/03/08 01:30:30.000   45.955800044  -78.071375762   207.2865   6   8   0.1230   0.0785   0.2142   0.0234   0.0523  -0.0914   0.00    0.0
2022/03/08 01:31:00.000   45.955800121  -78.071375693   207.2629   6   8   0.1223   0.0781   0.2134   0.0227   0.0523  -0.0909   0.00    0.0
2022/03/08 01:31:30.000   45.955800185  -78.071375639   207.2454   6   8   0.1217   0.0778   0.2126   0.0220   0.0523  -0.0905   0.00    0.0
2022/03/08 01:32:00.000   45.955800239  -78.071375609   207.2310   6   8   0.1211   0.0775   0.2117   0.0213   0.0524  -0.0901   0.00    0.0
2022/03/08 01:32:30.000   45.955800272  -78.071375578   207.2195   6   8   0.1205   0.0771   0.2109   0.0206   0.0524  -0.0897   0.00    0.0
2022/03/08 01:33:00.000   45.955800312  -78.071375550   207.2096   6   8   0.1198   0.0768   0.2101   0.0199   0.0524  -0.0893   0.00    0.0
2022/03/08 01:33:30.000   45.955800362  -78.071375545   207.1982   6   8   0.1192   0.0765   0.2093   0.0192   0.0524  -0.0889   0.00    0.0
2022/03/08 01:34:00.000   45.955800394  -78.071375497   207.1820   6   8   0.1186   0.0761   0.2085   0.0184   0.0524  -0.0885   0.00    0.0
2022/03/08 01:34:30.000   45.955800426  -78.071375480   207.1669   6   8   0.1180   0.0758   0.2077   0.0176   0.0524  -0.0882   0.00    0.0
2022/03/08 01:35:00.000   45.955800447  -78.071375446   207.1512   6   8   0.1174   0.0755   0.2069   0.0169   0.0525  -0.0878   0.00    0.0
2022/03/08 01:35:30.000   45.955800463  -78.071375418   207.1378   6   8   0.1169   0.0752   0.2061   0.0160   0.0525  -0.0874   0.00    0.0
2022/03/08 01:36:00.000   45.955800458  -78.071375406   207.1317   6   8   0.1163   0.0749   0.2053   0.0152   0.0525  -0.0870   0.00    0.0
2022/03/08 01:36:30.000   45.955800480  -78.071375395   207.1223   6   8   0.1157   0.0746   0.2045   0.0143   0.0525  -0.0866   0.00    0.0
2022/03/08 01:37:00.000   45.955800516  -78.071375390   207.1091   6   8   0.1151   0.0743   0.2037   0.0134   0.0525  -0.0863   0.00    0.0
2022/03/08 01:37:30.000   45.955800556  -78.071375392   207.0931   6   8   0.1146   0.0740   0.2029   0.0125   0.0525  -0.0859   0.00    0.0
2022/03/08 01:38:00.000   45.955800600  -78.071375378   207.0769   6   8   0.1140   0.0737   0.2021   0.0115   0.0525  -0.0855   0.00    0.0
2022/03/08 01:38:30.000   45.955800632  -78.071375353   207.0664   6   8   0.1135   0.0734   0.2013   0.0104   0.0525  -0.0852   0.00    0.0
2022/03/08 01:39:00.000   45.955800658  -78.071375329   207.0521   6   8   0.1129   0.0731   0.2005   0.0092   0.0525  -0.0848   0.00    0.0
2022/03/08 01:39:30.000   45.955800681  -78.071375315   207.0385   6   8   0.1124   0.0728   0.1997   0.0079   0.0525  -0.0845   0.00    0.0
2022/03/08 01:40:00.000   45.955800709  -78.071375308   207.0255   6   8   0.1119   0.0725   0.1990   0.0063   0.0524  -0.0841   0.00    0.0
2022/03/08 01:40:30.000   45.955800733  -78.071375293   207.0145   6   8   0.1113   0.0723   0.1982   0.0043   0.0524  -0.0838   0.00    0.0
2022/03/08 01:41:00.000   45.955800769  -78.071375258   206.9973   6   8   0.1108   0.0720   0.1974  -0.0017   0.0524  -0.0834   0.00    0.0
2022/03/08 01:41:30.000   45.955800787  -78.071375239   206.9855   6   8   0.1103   0.0717   0.1966  -0.0049   0.0524  -0.0831   0.00    0.0
2022/03/08 01:42:00.000   45.955800823  -78.071375210   206.9739   6   8   0.1098   0.0714   0.1958  -0.0067   0.0524  -0.0827   0.00    0.0
2022/03/08 01:42:30.000   45.955800841  -78.071375184   206.9648   6   8   0.1093   0.0712   0.1951  -0.0080   0.0523  -0.0824   0.00    0.0
2022/03/08 01:43:00.000   45.955800859  -78.071375158   206.9547   6   8   0.1088   0.0709   0.1943  -0.0092   0.0523  -0.0821   0.00    0.0
2022/03/08 01:43:30.000   45.955800897  -78.071375132   206.9396   6   8   0.1083   0.0706   0.1935  -0.0102   0.0523  -0.0818   0.00    0.0
2022/03/08 01:44:00.000   45.955800956  -78.071375087   206.9256   6   8   0.1078   0.0704   0.1928  -0.0111   0.0522  -0.0814   0.00    0.0
2022/03/08 01:44:30.000   45.955800997  -78.071375048   206.9139   6   8   0.1073   0.0701   0.1920  -0.0119   0.0522  -0.0811   0.00    0.0
2022/03/08 01:45:00.000   45.955801036  -78.071375047   206.9010   6   8   0.1068   0.0699   0.1912  -0.0126   0.0522  -0.0808   0.00    0.0
2022/03/08 01:45:30.000   45.955801060  -78.071375026   206.8866   6   8   0.1063   0.0696   0.1905  -0.0133   0.0521  -0.0805   0.00    0.0
2022/03/08 01:46:00.000   45.955801093  -78.071374999   206.8710   6   8   0.1059   0.0694   0.1897  -0.0140   0.0521  -0.0802   0.00    0.0
2022/03/08 01:46:30.000   45.955801087  -78.071374991   206.8598   6   8   0.1054   0.0691   0.1889  -0.0146   0.0521  -0.0799   0.00    0.0
2022/03/08 01:47:00.000   45.955801099  -78.071374982   206.8467   6   8   0.1049   0.0689   0.1882  -0.0151   0.0520  -0.0796   0.00    0.0
2022/03/08 01:47:30.000   45.955801131  -78.071374973   206.8385   6   8   0.1045   0.0687   0.1874  -0.0157   0.0520  -0.0792   0.00    0.0
2022/03/08 01:48:00.000   45.955801156  -78.071374951   206.8262   6   8   0.1040   0.0684   0.1867  -0.0162   0.0519  -0.0789   0.00    0.0
2022/03/08 01:48:30.000   45.955801202  -78.071374922   206.8119   6   8   0.1036   0.0682   0.1859  -0.0167   0.0519  -0.0786   0.00    0.0
2022/03/08 01:49:00.000   45.955801238  -78.071374901   206.8011   6   8   0.1031   0.0679   0.1852  -0.0171   0.0518  -0.0783   0.00    0.0
2022/03/08 01:49:30.000   45.955801291  -78.071374879   206.7882   6   8   0.1027   0.0677   0.1845  -0.0176   0.0517  -0.0780   0.00    0.0
2022/03/08 01:50:00.000   45.955801338  -78.071374863   206.7729   6   8   0.1023   0.0675   0.1837  -0.0180   0.0517  -0.0777   0.00    0.0
2022/03/08 01:50:30.000   45.955801387  -78.071374863   206.7584   6   8   0.1018   0.0673   0.1830  -0.0184   0.0516  -0.0774   0.00    0.0
2022/03/08 01:51:00.000   45.955801415  -78.071374848   206.7485   6   8   0.1014   0.0670   0.1822  -0.0188   0.0516  -0.0771   0.00    0.0
2022/03/08 01:51:30.000   45.955801453  -78.071374837   206.7411   6   8   0.1010   0.0668   0.1815  -0.0192   0.0515  -0.0769   0.00    0.0
2022/03/08 01:52:00.000   45.955801493  -78.071374837   206.7295   6   8   0.1005   0.0666   0.1808  -0.0195   0.0514  -0.0766   0.00    0.0
2022/03/08 01:52:30.000   45.955801555  -78.071374813   206.7146   6   8   0.1001   0.0664   0.1800  -0.0199   0.0514  -0.0763   0.00    0.0
2022/03/08 01:53:00.000   45.955801592  -78.071374822   206.7022   6   8   0.0997   0.0662   0.1793  -0.0202   0.0513  -0.0760   0.00    0.0
2022/03/08 01:53:30.000   45.955801649  -78.071374814   206.6901   6   8   0.0993   0.0660   0.1786  -0.0205   0.0512  -0.0757   0.00    0.0
2022/03/08 01:54:00.000   45.955801706  -78.071374790   206.6779   6   8   0.0989   0.0657   0.1779  -0.0208   0.0511  -0.0754   0.00    0.0
2022/03/08 01:54:30.000   45.955801766  -78.071374794   206.6617   6   8   0.0985   0.0655   0.1771  -0.0211   0.0511  -0.0751   0.00    0.0
2022/03/08 01:55:00.000   45.955801808  -78.071374765   206.6512   6   8   0.0981   0.0653   0.1764  -0.0214   0.0510  -0.0749   0.00    0.0
2022/03/08 01:55:30.000   45.955801827  -78.071374752   206.6435   6   8   0.0977   0.0651   0.1757  -0.0217   0.0509  -0.0746   0.00    0.0
2022/03/08 01:56:00.000   45.955801862  -78.071374743   206.6339   6   8   0.0973   0.0649   0.1750  -0.0219   0.0508  -0.0743   0.00    0.0
2022/03/08 01:56:30.000   45.955801887  -78.071374720   206.6309   6   9   0.0969   0.0647   0.1741  -0.0220   0.0505  -0.0738   0.00    0.0
2022/03/08 01:57:00.000   45.955801912  -78.071374703   206.6237   6   9   0.0964   0.0645   0.1732  -0.0221   0.0503  -0.0734   0.00    0.0
2022/03/08 01:57:30.000   45.955801910  -78.071374688   206.6197   6   9   0.0960   0.0642   0.1723  -0.0221   0.0500  -0.0729   0.00    0.0
2022/03/08 01:58:00.000   45.955801918  -78.071374662   206.6171   6   9   0.0955   0.0640   0.1714  -0.0222   0.0498  -0.0724   0.00    0.0
2022/03/08 01:58:30.000   45.955801939  -78.071374629   206.6143   6   9   0.0951   0.0638   0.1705  -0.0223   0.0495  -0.0719   0.00    0.0
2022/03/08 01:59:00.000   45.955801982  -78.071374622   206.6043   6   9   0.0947   0.0636   0.1696  -0.0223   0.0492  -0.0715   0.00    0.0
2022/03/08 01:59:30.000   45.955801978  -78.071374618   206.6033   6   9   0.0942   0.0633   0.1688  -0.0224   0.0490  -0.0710   0.00    0.0
2022/03/08 02:00:00.000   45.955801970  -78.071374618   206.6025   6   9   0.0938   0.0631   0.1679  -0.0224   0.0487  -0.0705   0.00    0.0
2022/03/08 02:00:30.000   45.955801958  -78.071374615   206.6062   6   9   0.0934   0.0629   0.1671  -0.0224   0.0484  -0.0701   0.00    0.0
2022/03/08 02:01:00.000   45.955801975  -78.071374602   206.6033   6   9   0.0930   0.0627   0.1662  -0.0225   0.0482  -0.0696   0.00    0.0
2022/03/08 02:01:30.000   45.955801999  -78.071374583   206.6009   6   9   0.0926   0.0625   0.1654  -0.0225   0.0479  -0.0692   0.00    0.0
2022/03/08 02:02:00.000   45.955801999  -78.071374554   206.5946   6   9   0.0922   0.0622   0.1645  -0.0225   0.0477  -0.0687   0.00    0.0
2022/03/08 02:02:30.000   45.955802005  -78.071374520   206.5906   6   9   0.0917   0.0620   0.1637  -0.0226   0.0474  -0.0683   0.00    0.0
2022/03/08 02:03:00.000   45.955802026  -78.071374507   206.5854   6   9   0.0913   0.0618   0.1628  -0.0226   0.0471  -0.0679   0.00    0.0
2022/03/08 02:03:30.000   45.955802048  -78.071374471   206.5842   6   9   0.0909   0.0616   0.1620  -0.0226   0.0468  -0.0674   0.00    0.0
2022/03/08 02:04:00.000   45.955802057  -78.071374436   206.5832   6   9   0.0905   0.0614   0.1612  -0.0226   0.0466  -0.0670   0.00    0.0
2022/03/08 02:04:30.000   45.955802067  -78.071374425   206.5806   6   9   0.0901   0.0612   0.1604  -0.0227   0.0463  -0.0666   0.00    0.0
2022/03/08 02:05:00.000   45.955802078  -78.071374409   206.5787   6   9   0.0898   0.0610   0.1596  -0.0227   0.0460  -0.0662   0.00    0.0
2022/03/08 02:05:30.000   45.955802098  -78.071374404   206.5765   6   9   0.0894   0.0608   0.1588  -0.0227   0.0458  -0.0658   0.00    0.0
2022/03/08 02:06:00.000   45.955802110  -78.071374384   206.5749   6   9   0.0890   0.0606   0.1580  -0.0227   0.0455  -0.0654   0.00    0.0
2022/03/08 02:06:30.000   45.955802137  -78.071374366   206.5718   6   9   0.0886   0.0604   0.1572  -0.0227   0.0453  -0.0650   0.00    0.0
2022/03/08 02:07:00.000   45.955802147  -78.071374346   206.5680   6   9   0.0882   0.0602   0.1565  -0.0228   0.0450  -0.0646   0.00    0.0
2022/03/08 02:07:30.000   45.955802179  -78.071374350   206.5630   6   9   0.0879   0.0600   0.1557  -0.0228   0.0448  -0.0642   0.00    0.0
2022/03/08 02:08:00.000   45.955802200  -78.071374327   206.5631   6   9   0.0875   0.0598   0.1549  -0.0228   0.0445  -0.0638   0.00    0.0
2022/03/08 02:08:30.000   45.955802226  -78.071374312   206.5619   6   9   0.0871   0.0596   0.1542  -0.0228   0.0443  -0.0634   0.00    0.0
2022/03/08 02:09:00.000   45.955802249  -78.071374316   206.5588   6   9   0.0868   0.0594   0.1534  -0.0229   0.0440  -0.0631   0.00    0.0
2022/03/08 02:09:30.000   45.955802260  -78.071374301   206.5597   6   9   0.0864   0.0592   0.1527  -0.0229   0.0438  -0.0627   0.00    0.0
2022/03/08 02:10:00.000   45.955802252  -78.071374296   206.5620   6   9   0.0861   0.0590   0.1520  -0.0229   0.0435  -0.0624   0.00    0.0
2022/03/08 02:10:30.000   45.955802249  -78.071374294   206.5645   6   9   0.0858   0.0588   0.1513  -0.0229   0.0433  -0.0620   0.00    0.0
2022/03/08 02:11:00.000   45.955802251  -78.071374288   206.5633   6   9   0.0854   0.0586   0.1506  -0.0229   0.0431  -0.0617   0.00    0.0
2022/03/08 02:11:30.000   45.955802264  -78.071374286   206.5622   6   9   0.0851   0.0585   0.1498  -0.0229   0.0428  -0.0613   0.00    0.0
2022/03/08 02:12:00.000   45.955802263  -78.071374286   206.5632   6   9   0.0848   0.0583   0.1491  -0.0230   0.0426  -0.0610   0.00    0.0
2022/03/08 02:12:30.000   45.955802272  -78.071374285   206.5645   6   9   0.0844   0.0581   0.1485  -0.0230   0.0424  -0.0607   0.00    0.0
2022/03/08 02:13:00.000   45.955802285  -78.071374290   206.5626   6   9   0.0841   0.0579   0.1478  -0.0230   0.0421  -0.0603   0.00    0.0
2022/03/08 02:13:30.000   45.955802308  -78.071374300   206.5609   6   9   0.0838   0.0578   0.1471  -0.0230   0.0419  -0.0600   0.00    0.0
2022/03/08 02:14:00.000   45.955802316  -78.071374298   206.5491   6   8   0.0835   0.0576   0.1465  -0.0230   0.0417  -0.0597   0.00    0.0
2022/03/08 02:14:30.000   45.955802314  -78.071374283   206.5368   6   8   0.0832   0.0574   0.1459  -0.0230   0.0414  -0.0593   0.00    0.0
2022/03/08 02:15:00.000   45.955802317  -78.071374251   206.5261   6   8   0.0829   0.0573   0.1454  -0.0231   0.0412  -0.0589   0.00    0.0
2022/03/08 02:15:30.000   45.955802321  -78.071374229   206.5163   6   8   0.0826   0.0571   0.1448  -0.0231   0.0409  -0.0586   0.00    0.0
2022/03/08 02:16:00.000   45.955802315  -78.071374212   206.5060   6   8   0.0823   0.0570   0.1442  -0.0231   0.0407  -0.0582   0.00    0.0
2022/03/08 02:16:30.000   45.955802301  -78.071374203   206.4978   6   8   0.0820   0.0568   0.1437  -0.0231   0.0405  -0.0579   0.00    0.0
2022/03/08 02:17:00.000   45.955802289  -78.071374187   206.4902   6   8   0.0818   0.0566   0.1431  -0.0232   0.0402  -0.0575   0.00    0.0
2022/03/08 02:17:30.000   45.955802279  -78.071374193   206.4785   6   8   0.0815   0.0565   0.1426  -0.0232   0.0400  -0.0572   0.00    0.0
2022/03/08 02:18:00.000   45.955802269  -78.071374179   206.4690   6   8   0.0812   0.0563   0.1420  -0.0232   0.0398  -0.0568   0.00    0.0
2022/03/08 02:18:30.000   45.955802265  -78.071374188   206.4566   6   8   0.0809   0.0562   0.1415  -0.0232   0.0396  -0.0565   0.00    0.0
2022/03/08 02:19:00.000   45.955802249  -78.071374173   206.4477   6   8   0.0807   0.0560   0.1409  -0.0232   0.0393  -0.0562   0.00    0.0
2022/03/08 02:19:30.000   45.955802257  -78.071374175   206.4330   6   8   0.0804   0.0559   0.1404  -0.0233   0.0391  -0.0559   0.00    0.0
2022/03/08 02:20:00.000   45.955802260  -78.071374176   206.4214   6   8   0.0802   0.0557   0.1399  -0.0233   0.0389  -0.0555   0.00    0.0
2022/03/08 02:20:30.000   45.955802258  -78.071374175   206.4125   6   8   0.0799   0.0556   0.1394  -0.0233   0.0387  -0.0552   0.00    0.0
2022/03/08 02:21:00.000   45.955802246  -78.071374164   206.4039   6   8   0.0796   0.0554   0.1388  -0.0233   0.0385  -0.0549   0.00    0.0
2022/03/08 02:21:30.000   45.955802239  -78.071374161   206.3945   6   8   0.0794   0.0553   0.1383  -0.0233   0.0382  -0.0546   0.00    0.0
2022/03/08 02:22:00.000   45.955802221  -78.071374156   206.3854   6   8   0.0791   0.0552   0.1378  -0.0233   0.0380  -0.0543   0.00    0.0
2022/03/08 02:22:30.000   45.955802219  -78.071374151   206.3758   6   8   0.0789   0.0550   0.1373  -0.0233   0.0378  -0.0540   0.00    0.0
2022/03/08 02:23:00.000   45.955802215  -78.071374154   206.3682   6   8   0.0786   0.0549   0.1368  -0.0233   0.0376  -0.0537   0.00    0.0
2022/03/08 02:23:30.000   45.955802212  -78.071374158   206.3577   6   8   0.0784   0.0547   0.1363  -0.0233   0.0374  -0.0534   0.00    0.0
2022/03/08 02:24:00.000   45.955802224  -78.071374159   206.3476   6   8   0.0782   0.0546   0.1358  -0.0233   0.0372  -0.0532   0.00    0.0
2022/03/08 02:24:30.000   45.955802240  -78.071374167   206.3357   6   8   0.0779   0.0545   0.1353  -0.0234   0.0370  -0.0529   0.00    0.0
2022/03/08 02:25:00.000   45.955802244  -78.071374182   206.3274   6  